{"nome": "Marina Castro Rodrigues", "endereco": " Avenida Francisco Matarazzo, 455 - \u00c1gua Branca, S\u00e3o Paulo - S\u00e3o Paulo, 05001-900", "descricao": "Cal\u00e7ada quebrada no interior do parque \u00e1gua branca em S\u00e3o Paulo, acho um descaso com um patrim\u00f4nio t\u00e3o bem cuidado ", "latitude": -23.5311215, "longitude": -46.6653809, "cid": "QmeReFhGwGfEKBu14WEfF5wV8Se7mDeCjEtznzrRYKnUDS", "data": "2026-06-22 19:32:55"}
{"nome": "Francisca da Concei\u00e7\u00e3o", "endereco": "Rua doutor Adolpho pinto, 100 - \u00c1gua Branca, S\u00e3o Paulo - S\u00e3o Paulo, 01156050", "descricao": "Buraco enorme abriu na cal\u00e7ada da rua doutor Adolpho pinto, impedindo passagem de pedestre.", "latitude": -23.5294702, "longitude": -46.6657351, "cid": "QmcHrx1ZMCa99Tcggx1Pr4C7dbS4hPE7cq4rjAcEHntbAh", "data": "2026-06-22 19:54:50"}
{"nome": "Martim Barbosa Rocha", "endereco": "Rua Doutor Albuquerque Lins, 680 - Santa Cecilia, S\u00e3o Paulo - S\u00e3o Paulo, 01230000", "descricao": "Arvore ca\u00edda a mais de 5 dias e a prefeitura s\u00f3 diz que v\u00e3o vir retirar e nada ainda ", "latitude": -23.5357884, "longitude": -46.6572029, "cid": "QmRhkRGFhVkiQAacbb6bbBiU97DmyiMCg1yuZ9r9nxWHkQ", "data": "2026-06-22 19:58:49"}
{"nome": "Martim Barbosa Rocha", "endereco": "Rua Doutor Alberto Torres, 21 - Perdizes, S\u00e3o Paulo - S\u00e3o Paulo,  05006030", "descricao": "poste cai por conta da chuva forte pr\u00f3ximo ao mercado dia, est\u00e1 desse jeito a alguns dias  e nada dos respons\u00e1veis virem resolver ", "latitude": -23.535332, "longitude": -46.6653303, "cid": "Qmd4TabhDjKFBPtpko6nXwUGzTQfAe66kKKuhCP2Zjp1oo", "data": "2026-06-22 20:04:18"}
{"nome": "Nelly Eva dos Santos", "endereco": "Rua Tupi, 522 - Santa Cec\u00edlia , S\u00e3o Paulo - S\u00e3o paulo, 01233000", "descricao": "duas casas geminadas hist\u00f3ricas que estavam em processo de restaura\u00e7\u00e3o, amanheceram totalmente vandalizadas ", "latitude": -23.5360971, "longitude": -46.6622444, "cid": "QmWDUPxeYhKngLaUS2HorVmEKN1n8GcHRHDa875hY768YM", "data": "2026-06-22 23:23:20"}
